{
  "results": [
    {
      "id": 1271308,
      "name": "Ghaziabad",
      "latitude": 28.66535,
      "longitude": 77.43915,
      "elevation": 214.0,
      "feature_code": "PPLA2",
      "country_code": "IN",
      "admin1_id": 1253626,
      "admin2_id": 1271310,
      "timezone": "Asia/Kolkata",
      "population": 1199191,
      "country_id": 1269750,
      "country": "India",
      "admin1": "Uttar Pradesh",
      "admin2": "Ghaziabad"
    },
    {
      "id": 1107189,
      "name": "Gagizai",
      "latitude": 34.56263,
      "longitude": 71.24658,
      "elevation": 790.0,
      "feature_code": "PPL",
      "country_code": "PK",
      "admin1_id": 1168873,
      "admin2_id": 1170122,
      "timezone": "Asia/Karachi",
      "country_id": 1168579,
      "country": "Pakistan",
      "admin1": "Khyber Pakhtunkhwa",
      "admin2": "Mohmand"
    },
    {
      "id": 1141278,
      "name": "Ghāzīābād",
      "latitude": 34.82532,
      "longitude": 70.1011,
      "elevation": 1158.0,
      "feature_code": "PPL",
      "country_code": "AF",
      "admin1_id": 1135022,
      "admin2_id": 7053970,
      "timezone": "Asia/Kabul",
      "country_id": 1149361,
      "country": "Afghanistan",
      "admin1": "Laghman",
      "admin2": "‘Alīsheng"
    },
    {
      "id": 1141279,
      "name": "Ghāzīābād",
      "latitude": 34.71581,
      "longitude": 70.76405,
      "elevation": 1289.0,
      "feature_code": "PPL",
      "country_code": "AF",
      "admin1_id": 1135702,
      "admin2_id": 7053965,
      "timezone": "Asia/Kabul",
      "country_id": 1149361,
      "country": "Afghanistan",
      "admin1": "Kunar",
      "admin2": "Nūrgal"
    },
    {
      "id": 1141280,
      "name": "Ghāzīābād",
      "latitude": 32.20216,
      "longitude": 63.01872,
      "elevation": 733.0,
      "feature_code": "PPL",
      "country_code": "AF",
      "admin1_id": 1142263,
      "admin2_id": 7052918,
      "timezone": "Asia/Kabul",
      "country_id": 1149361,
      "country": "Afghanistan",
      "admin1": "Farah",
      "admin2": "Bakwāh"
    },
    {
      "id": 1178534,
      "name": "Ghāzī Bāba",
      "latitude": 34.49219,
      "longitude": 72.09511,
      "elevation": 484.0,
      "feature_code": "PPL",
      "country_code": "PK",
      "admin1_id": 1168873,
      "admin2_id": 1170875,
      "timezone": "Asia/Karachi",
      "country_id": 1168579,
      "country": "Pakistan",
      "admin1": "Khyber Pakhtunkhwa",
      "admin2": "Mardān"
    },
    {
      "id": 1178536,
      "name": "Chak Twenty-one Eleven Left",
      "latitude": 30.39805,
      "longitude": 72.75545,
      "elevation": 151.0,
      "feature_code": "PPL",
      "country_code": "PK",
      "admin1_id": 1167710,
      "admin2_id": 1166545,
      "timezone": "Asia/Karachi",
      "country_id": 1168579,
      "country": "Pakistan",
      "admin1": "Punjab",
      "admin2": "Sāhīwāl District"
    },
    {
      "id": 1352914,
      "name": "Ghaziabad",
      "latitude": 34.55983,
      "longitude": 71.2353,
      "elevation": 847.0,
      "feature_code": "PPL",
      "country_code": "PK",
      "admin1_id": 1168873,
      "admin2_id": 1170122,
      "timezone": "Asia/Karachi",
      "country_id": 1168579,
      "country": "Pakistan",
      "admin1": "Khyber Pakhtunkhwa",
      "admin2": "Mohmand"
    },
    {
      "id": 1372110,
      "name": "Ghaziabad",
      "latitude": 31.32319,
      "longitude": 72.07019,
      "elevation": 159.0,
      "feature_code": "PPL",
      "country_code": "PK",
      "admin1_id": 1167710,
      "admin2_id": 1175906,
      "timezone": "Asia/Karachi",
      "country_id": 1168579,
      "country": "Pakistan",
      "admin1": "Punjab",
      "admin2": "Jhang"
    },
    {
      "id": 1387864,
      "name": "Chak Twenty-two Eleven Left",
      "latitude": 30.42953,
      "longitude": 72.75055,
      "elevation": 158.0,
      "feature_code": "PPL",
      "country_code": "PK",
      "admin1_id": 1167710,
      "admin2_id": 1166545,
      "timezone": "Asia/Karachi",
      "country_id": 1168579,
      "country": "Pakistan",
      "admin1": "Punjab",
      "admin2": "Sāhīwāl District"
    }
  ],
  "generationtime_ms": 0.65100193
}
